[
  {
    "id": 142205,
    "name": "Kho",
    "place": "QL1A, Tân Thới An, Quận 12, Thành phố Hồ Chí Minh, Việt Nam",
    "distances": [0, 113, 4.9, 4.3, 7.1],
    "timeTravels": [
      0,
      0.36666666666666664,
      0.13333333333333333,
      0.16666666666666666,
      0.3
    ],
    "order": {
      "long": 106.66277316347686,
      "lat": 10.863345807243473,
      "serviceTime": 0,
      "weight": 0.1,
      "timeWindow": [8, 20]
    }
  },
  {
    "id": 632778,
    "name": "NGUYEN THI THANH PHUONG",
    "place": "120/3/1 Đường Trục ",
    "distances": [11.3, 0, 5.8, 26.5, 98],
    "timeTravels": [
      0.36666666666666664,
      0,
      0.2833333333333333,
      1.1333333333333333,
      0.4
    ],
    "order": {
      "long": 106.70297235608354,
      "lat": 10.830300256818038,
      "serviceTime": 0.5,
      "weight": 0.1,
      "timeWindow": [8, 20]
    }
  },
  {
    "id": 418326,
    "name": "DUY TÂM",
    "place": "47/3/12A, Phường An Phú Đông, Quận 12, Hồ Chí Minh",
    "distances": [4.9, 5.8, 0, 7.5, 6.7],
    "timeTravels": [
      0.13333333333333333,
      0.2833333333333333,
      0,
      0.2833333333333333,
      0.26666666666666666
    ],
    "order": {
      "long": 106.68998038392921,
      "lat": 10.859364910132415,
      "serviceTime": 3,
      "weight": 0.1,
      "timeWindow": [8, 20]
    }
  },
  {
    "id": 954188,
    "name": "CHỊ LIÊN",
    "place": "51/4E TCH08, Phường Tân Chánh Hiệp, Quận 12, Hồ Chí Minh",
    "distances": [4.3, 26.5, 7.5, 0, 7],
    "timeTravels": [
      0.16666666666666666,
      1.1333333333333333,
      0.2833333333333333,
      0,
      0.2833333333333333
    ],
    "order": {
      "long": 106.62929944813716,
      "lat": 10.873221920575407,
      "serviceTime": 1.4,
      "weight": 0.1,
      "timeWindow": [8, 20]
    }
  },
  {
    "id": 509265,
    "name": "TRỊNH THỊ HIỀN",
    "place": "878/3 Quang Trung, Phường 8, Quận Gò Vấp, Hồ Chí Minh, Phường 8, Quận Gò Vấp, Hồ Chí Minh",
    "distances": [7.1, 98, 6.7, 7, 0],
    "timeTravels": [0.3, 0.4, 0.26666666666666666, 0.2833333333333333, 0],
    "order": {
      "long": 106.65896407937846,
      "lat": 10.83697817820673,
      "serviceTime": 1.6,
      "weight": 0.1,
      "timeWindow": [8, 20]
    }
  }
]
